{
  "cities": [
    {
      "id": "lutsk",
      "name": "Луцк",
      "coordinates": [50.747233, 25.325383],
      "importance": "major",
      "description": "Центральная цель главного удара 8-й армии",
      "population": 25000,
      "captured": true,
      "captureDate": "7 июня 1916",
      "significance": "Операция также известна как Луцкий прорыв"
    },
    {
      "id": "kovel",
      "name": "Ковель", 
      "coordinates": [51.215759, 24.708572],
      "importance": "strategic",
      "description": "Ключевая стратегическая цель наступления после Луцка",
      "population": 18000,
      "captured": false,
      "significance": "Город так и не был взят"
    },
    {
      "id": "chernivtsi",
      "name": "Черновцы",
      "coordinates": [48.291899, 25.935892],
      "importance": "major",
      "description": "Захвачены 9-й армией",
      "population": 87000,
      "captured": true,
      "captureDate": "18 июня 1916",
      "significance": "Столица Буковины"
    },
    {
      "id": "halych",
      "name": "Галич",
      "coordinates": [49.124844, 24.729692],
      "importance": "regional",
      "description": "Цель 7-й армии",
      "population": 12000,
      "captured": false,
      "significance": "Древний русский город"
    },
    {
      "id": "kolomyya",
      "name": "Коломыя",
      "coordinates": [48.5208, 25.0375],
      "importance": "regional",
      "description": "Цель 9-й армии",
      "population": 34000,
      "captured": true,
      "captureDate": "30 июня 1916",
      "significance": "Важный город в Восточной Галиции"
    },
    {
      "id": "dubno",
      "name": "Дубно",
      "coordinates": [50.4171, 25.7578],
      "importance": "regional",
      "description": "Захвачен частями 32-го корпуса 8-й армии",
      "population": 9000,
      "captured": true,
      "significance": "Древняя крепость на Волыни"
    },
    {
      "id": "stanislau",
      "name": "Станислав",
      "coordinates": [48.922633, 24.709383],
      "importance": "strategic",
      "description": "Цель 9-й армии (современный Ивано-Франковск)",
      "population": 41000,
      "captured": false,
      "significance": "Важный город Галиции"
    },
    {
      "id": "lviv",
      "name": "Львов",
      "coordinates": [49.8397, 24.0297],
      "importance": "major",
      "description": "Одна из целей 11-й армии",
      "population": 206000,
      "captured": false,
      "significance": "Русские войска вышли только на подступы к городу"
    },
    {
      "id": "kuty",
      "name": "Куты",
      "coordinates": [48.263, 25.179],
      "importance": "regional",
      "description": "Захвачены 12-м корпусом 9-й армии",
      "population": 8000,
      "captured": true,
      "captureDate": "июнь 1916",
      "significance": "Город на границе с Румынией"
    },
    {
      "id": "campulung",
      "name": "Кымпулунг",
      "coordinates": [47.527, 25.575],
      "importance": "regional",
      "description": "Захвачен в ходе кавалерийского рейда 3-го кавалерийского корпуса",
      "population": 12000,
      "captured": true,
      "captureDate": "июнь 1916",
      "significance": "Город в Румынии, захваченный русской кавалерией"
    },
    {
      "id": "brody",
      "name": "Броды",
      "coordinates": [50.0875, 25.1447],
      "importance": "regional",
      "population": 15000,
      "captured": false
    },
    {
      "id": "manevychi",
      "name": "Маневичи",
      "coordinates": [51.292329951327766,25.53192294204842],
      "importance": "local",
      "population": 3000,
      "captured": false
    },
    {
      "id": "galuzia",
      "name": "Галузия",
      "coordinates": [51.40224997054743,25.59724009597908],
      "importance": "local", 
      "population": 2000,
      "captured": false
    },
    {
      "id": "gorodok",
      "name": "Городок",
      "coordinates": [51.370134518234714,25.478750830537187],
      "importance": "local",
      "population": 2500,
      "captured": false
    },
    {
      "id": "baranovichi",
      "name": "Барановичи",
      "coordinates": [53.15299932079434,26.009472841308554],
      "importance": "strategic",
      "population": 12000,
      "captured": false
    },
    {
      "id": "lyubeshov",
      "name": "Любешов",
      "coordinates": [51.76414453594151,25.4983139201785],
      "importance": "regional",
      "population": 5000,
      "captured": false
    },
    {
      "id": "selec",
      "name": "Селец",
      "coordinates": [51.11264310924913,24.57768716137693],
      "importance": "local",
      "population": 1500,
      "captured": false
    },
    {
      "id": "tristen",
      "name": "Трыстень",
      "coordinates": [50.927164110407176,24.92742266180418],
      "importance": "local",
      "population": 1200,
      "captured": false
    },
    {
      "id": "koshevo",
      "name": "Кошево",
      "coordinates": [50.699519162075156,24.880144000000016],
      "importance": "local",
      "population": 1800,
      "captured": false
    },
    {
      "id": "torchin",
      "name": "Торчин",
      "coordinates": [50.76509416378133,24.998627169311497],
      "importance": "local",
      "population": 2200,
      "captured": false
    },
    {
      "id": "monastyryska",
      "name": "Монастыриска",
      "coordinates": [49.091751099049965,25.169610912719676],
      "importance": "regional",
      "population": 8500,
      "captured": false
    }
  ]
} 